{
  "reservation": [
    {
      "id": 1,
      "tableCreator": 2,
      "address": "3 allée des Colombes 23560 PLOP CEDEX",
      "name": "La Cruche qui dort",
      "date": "21/07/2022",
      "hours": "10 : 15",
      "invitesId": [3, 4, 6],
      "themes": "resto",
      "participants": [4, 6, 2],
      "options": {
        "wheelApero": {
          "setUp": true,
          "launched": false,
          "person": ""
        },
        "dresscode": {
          "setUp": true,
          "description": "S'habiller comme dans les années 80"
        }
      },
      "chooseMode": "defined"
    },
    {
      "id": 2,
      "tableCreator": 10,
      "date": "17/03/2021",
      "hours": "8 : 15",
      "invitesId": [1, 2, 5, 6, 8],
      "themes": "bar",
      "participants": [1, 2, 5, 6, 8, 10],
      "options": {
        "wheelApero": {
          "setUp": false,
          "launched": false,
          "person": ""
        },
        "dresscode": {
          "setUp": true,
          "description": ""
        }
      },
      "chooseMode": "random",
      "randomWheel": {
        "locations": [
          {
            "address": "3 allée des Colombes 23560 PLOP CEDEX",
            "name": "La Moulaga"
          },
          {
            "address": "21 Impasse du Dr Mengele 78569 PLOP CEDEX",
            "name": "Le Tranchoir"
          },
          {
            "address": "41 Rue de la puebla 78569 PLOP CEDEX",
            "name": "Le Tam-Tam"
          }
        ],
        "addLocation": true,
        "checkWheelStart": true,
        "result": {
            "address": "41 Rue de la puebla 78569 PLOP CEDEX",
            "name": "Le Tam-Tam"
        }
      }
    },
    {
      "id": 3,
      "tableCreator": 1,
      "date": "05/10/2022",
      "hours": "22 : 45",
      "invitesId": [3, 4, 6],
      "themes": "resto",
      "participants": [1, 4, 6, 10],
      "options": {
        "wheelApero": {
          "setUp": false,
          "launched": false,
          "person": ""
        },
        "dresscode": {
          "setUp": false
        }
      },
      "chooseMode": "vote",
      "vote": {
        "addProposition": true,
        "choices": [{
            
                "address": "3 allée des Colombes 23560 PLOP CEDEX",
                "name": "La Moulaga",
                "votes": 2
              },
              {
                "address": "21 Impasse du Dr Mengele 78569 PLOP CEDEX",
                "name": "Le Tranchoir",
                "votes": 0
              },
              {
                "address": "41 Rue de la puebla 78569 PLOP CEDEX",
                "name": "Le Tam-Tam",
                "votes": 2
              }
        ],
        "result": {
            "address": "41 Rue de la puebla 78569 PLOP CEDEX",
            "name": "Le Tam-Tam"
        },
        "endVoteDay": "23/07/2022",
        "endVoteHour": "21:00"

      }
    },
    {
      "id": 4,
      "tableCreator": 3,
      "address": "17 rue du poney qui tousse 75001 PLOP CEDEX",
      "name": "Boubacar",
      "date": "05/08/2022",
      "hours": "13 : 15",
      "invitesId": [1, 2, 3, 4, 5, 7, 9, 10],
      "themes": "home",
      "participants": [1, 2, 3, 4, 5, 7, 9, 10],
      "options": {
        "wheelApero": {
          "setUp": true,
          "launched": false,
          "person": ""
        },
        "dresscode": {
          "setUp": true,
          "description": "blanc"
        }
      },
      "chooseMode": "defined"
    },
    {
      "id": 5,
      "tableCreator": 10,
      "address": "18 avenue des orangeades 75001 PLOP CEDEX",
      "name": "L'Orange bleue",
      "date": "11/09/2022",
      "hours": "19 : 15",
      "invitesId": [3, 4, 6, 1, 2, 10, 9, 5, 7, 8],
      "themes": "resto",
      "participants": [3, 4, 6, 1, 2, 10, 9],
      "options": {
        "wheelApero": {
          "setUp": true,
          "launched": true,
          "person": 3
        },
        "dresscode": {
          "setUp": true,
          "description": "S'habiller comme dans les années 80"
        }
      },
      "chooseMode": "defined",
      "vote": {
        "addProposition": true,
        "choices": [{
            
                "address": "3 allée des Colombes 23560 PLOP CEDEX",
                "name": "La Moulaga",
                "votes": 1
              },
              {
                "address": "21 Impasse du Dr Mengele 78569 PLOP CEDEX",
                "name": "Le Tranchoir",
                "votes": 4
              },
              {
                "address": "41 Rue de la puebla 78569 PLOP CEDEX",
                "name": "Le Tam-Tam",
                "votes": 2
              }
        ],
        "result": {
            "address": "41 Rue de la puebla 78569 PLOP CEDEX",
            "name": "Le Tam-Tam"
        },
        "endVoteDay": "23/07/2022",
        "endVoteHour": "21:00"

      }
    }
  ]
}
